City,Latitude,Longitude,Max Temp,Humidity,Cloudiness,Wind Speed,Country,Date
Butaritari,3.0707,172.7902,83.88,73,10,18.14,KI,1632791263
Vaini,-21.2,-175.2,80.76,78,20,6.91,TO,1632791270
Pevek,69.7008,170.3133,23.76,74,100,5.73,RU,1632791260
Fukuechō,32.6881,128.8419,77.14,77,86,7.63,JP,1632791549
Cherskiy,68.75,161.3,22.95,95,100,17.49,RU,1632791381
Aksarka,66.5606,67.7975,31.06,84,100,10.16,RU,1632791270
Yellowknife,62.456,-114.3525,43.41,80,20,4.0,CA,1632791103
Jamestown,42.097,-79.2353,67.84,82,1,1.01,US,1632791134
Busselton,-33.65,115.3333,60.04,73,100,8.55,AU,1632791247
Hermanus,-34.4187,19.2345,54.9,80,6,6.24,ZA,1632791293
NEDJO,9.5046,35.5019,54.7,90,84,1.14,ET,1632791550
Punta Arenas,-53.15,-70.9167,42.82,87,90,13.8,CL,1632791249
Constitución,-35.3333,-72.4167,52.0,64,0,7.54,CL,1632791550
Vila Velha,-20.3297,-40.2925,75.15,83,75,8.05,BR,1632791317
Sabha,27.0377,14.4283,72.64,27,0,8.86,LY,1632791551
Ust-Maya,60.4167,134.5333,39.49,91,100,7.94,RU,1632791551
Rikitea,-23.1203,-134.9692,73.33,74,5,21.12,PF,1632791250
São Filipe,14.8961,-24.4956,79.54,79,13,5.37,CV,1632791346
Rosarito,32.3333,-117.0333,66.47,74,13,9.19,MX,1632791035
Palmer,42.1584,-72.3287,68.61,79,93,4.0,US,1632791552
Cape Town,-33.9258,18.4232,55.11,73,1,6.62,ZA,1632791160
Faanui,-16.4833,-151.75,79.63,73,6,14.88,PF,1632791388
Mar del Plata,-38.0023,-57.5575,49.12,73,0,1.01,AR,1632791208
Atuona,-9.8,-139.0333,77.85,73,14,19.66,PF,1632791249
Boyolangu,-8.1181,111.8935,78.13,71,80,9.95,ID,1632791552
Bengkulu,-3.8004,102.2655,78.33,86,61,3.53,ID,1632791294
Paris,48.8534,2.3488,53.15,89,0,2.3,FR,1632791372
Paamiut,61.994,-49.6678,34.03,59,0,1.74,GL,1632791553
Puerto Ayora,-0.7393,-90.3518,69.08,91,89,8.55,EC,1632791245
Oistins,13.0667,-59.5333,82.49,74,40,8.05,BB,1632791553
Hilo,19.7297,-155.09,82.13,71,90,8.05,US,1632791082
Jinsha,32.0898,121.0735,83.98,81,35,0.07,CN,1632791554
George Town,5.4112,100.3354,83.89,82,20,5.75,MY,1632791320
Natal,-5.795,-35.2094,77.65,83,75,9.22,BR,1632791554
Ürümqi,43.801,87.6005,56.35,25,0,4.47,CN,1632791555
Saldanha,-33.0117,17.9442,56.08,78,0,11.92,ZA,1632791393
Provideniya,64.3833,-173.3,33.91,69,75,11.18,RU,1632791287
Morón,-34.6534,-58.6198,55.15,97,100,5.01,AR,1632791555
Qaanaaq,77.484,-69.3632,24.48,65,100,7.09,GL,1632791244
Kidal,18.4411,1.4078,84.42,14,0,10.54,ML,1632791556
Castro,-24.7911,-50.0119,65.44,71,46,5.12,BR,1632791252
Sitka,57.0531,-135.33,49.89,81,90,11.5,US,1632791329
Kloulklubed,7.0419,134.2556,86.5,72,39,7.0,PW,1632791556
Port Alfred,-33.5906,26.891,62.15,84,100,17.52,ZA,1632791016
Machico,32.7,-16.7667,72.23,76,20,8.05,PT,1632791557
Tiksi,71.6872,128.8694,32.63,95,99,4.21,RU,1632791336
Hobart,-42.8794,147.3294,60.12,59,75,1.01,AU,1632791261
Larsnes,62.2028,5.5773,59.68,84,100,17.47,NO,1632791557
Bluff,-46.6,168.3333,56.8,66,89,12.75,NZ,1632791269
Riyadh,24.6877,46.7219,71.74,16,96,9.37,SA,1632791310
Sukhobezvodnoye,57.0491,44.8891,34.39,95,12,7.14,RU,1632791558
Nikolskoye,59.7035,30.7861,44.87,95,0,2.93,RU,1632791251
Lebu,-37.6167,-73.65,48.31,82,98,14.45,CL,1632791292
Saint Paul Harbor,57.79,-152.4072,45.59,53,100,4.27,US,1632791319
Santiago del Estero,-27.7951,-64.2615,76.8,30,0,7.96,AR,1632791351
Cabo San Lucas,22.8909,-109.9124,86.5,70,1,6.91,MX,1632791283
Plácido de Castro,-10.3353,-67.1856,80.92,57,5,2.55,BR,1632791559
Mataura,-46.1927,168.8643,56.48,40,66,4.88,NZ,1632791260
Touros,-5.1989,-35.4608,77.9,85,42,16.35,BR,1632791416
Petropavlovsk-Kamchatskiy,53.0452,158.6483,57.79,47,20,6.71,RU,1632791451
Saint George,37.1041,-113.5841,90.07,33,1,1.01,US,1632791282
Carnarvon,-24.8667,113.6333,69.87,52,41,10.36,AU,1632791286
Atambua,-9.1061,124.8925,85.23,46,8,1.21,ID,1632791560
Shakawe,-18.3667,21.85,66.36,21,0,5.7,BW,1632791560
Kuytun,54.3419,101.5036,33.89,84,99,12.28,RU,1632791339
Avarua,-21.2078,-159.775,80.65,74,75,10.36,CK,1632791268
Bugiri,0.5714,33.7417,64.18,89,59,3.42,UG,1632791561
Honolulu,21.3069,-157.8583,89.42,64,20,1.99,US,1632791233
Oltu,40.5498,42.0013,47.37,80,0,1.79,TR,1632791561
Lompoc,34.6391,-120.4579,69.85,89,90,9.22,US,1632791313
Clyde River,70.4692,-68.5914,27.63,88,23,12.26,CA,1632791445
Dikson,73.5069,80.5464,34.9,86,100,20.31,RU,1632791435
Kapaa,22.0752,-159.319,85.98,75,20,5.99,US,1632791267
Shingū,33.7333,135.9833,72.82,85,85,13.18,JP,1632791562
Albany,42.6001,-73.9662,69.67,84,100,5.86,US,1632791025
Bethel,41.3712,-73.414,72.57,72,1,3.44,US,1632791193
Talnakh,69.4865,88.3972,31.91,57,100,1.28,RU,1632791563
Humberto de Campos,-2.5983,-43.4611,76.96,86,62,5.41,BR,1632791473
Port Hardy,50.6996,-127.4199,51.98,93,75,10.36,CA,1632791270
Hambantota,6.1241,81.1185,80.67,76,97,20.4,LK,1632791563
Raudeberg,61.9875,5.1352,57.2,91,100,5.99,NO,1632791563
Severo-Kuril'sk,50.6789,156.125,51.12,80,99,9.4,RU,1632791321
Sinjai,-5.1241,120.253,83.32,70,78,6.53,ID,1632791564
Coyhaique,-45.5752,-72.0662,44.55,65,40,3.44,CL,1632791271
Saint-Pierre,-21.3393,55.4781,69.44,75,20,5.75,RE,1632791565
Iowa City,41.6611,-91.5302,77.65,61,1,0.0,US,1632791507
Upernavik,72.7868,-56.1549,25.07,57,73,4.14,GL,1632791317
Araçuaí,-16.8497,-42.0703,75.11,61,7,5.97,BR,1632791565
Marawi,7.9986,124.2928,76.64,60,79,2.15,PH,1632791332
Hoshcha,50.6003,26.6744,41.18,91,0,6.35,UA,1632791416
Ushuaia,-54.8,-68.3,40.66,87,75,17.27,AR,1632791248
Coahuayana Viejo,18.7333,-103.6833,79.27,87,100,2.62,MX,1632791566
New Norfolk,-42.7826,147.0587,59.76,60,100,1.01,AU,1632791265
La Ronge,55.1001,-105.2842,55.92,71,0,7.09,CA,1632791357
Sestri Levante,44.2732,9.3968,71.06,88,12,1.99,IT,1632791566
Ngora,1.4314,33.7772,65.01,87,92,2.06,UG,1632791567
Bourail,-21.5667,165.4833,73.06,58,90,10.42,NC,1632791567
Lianran,24.9227,102.485,65.32,77,5,2.35,CN,1632791568
Tura,25.5198,90.2201,76.15,87,36,2.71,IN,1632791454
Port Elizabeth,-33.918,25.5701,61.11,84,72,14.97,ZA,1632791148
Rafai,4.95,23.9167,67.39,99,91,1.9,CF,1632791568
El Cobre,20.0489,-75.9469,83.64,74,20,5.75,CU,1632791459
Marbella,36.5154,-4.8858,66.07,75,54,1.95,ES,1632791569
Siocon,7.7061,122.1353,84.69,74,82,2.26,PH,1632791569
Tuktoyaktuk,69.4541,-133.0374,28.27,82,15,10.18,CA,1632791317
Las Palmas,28.4204,-14.0131,70.59,83,2,19.57,ES,1632791570
Eureka,40.8021,-124.1637,61.2,92,100,5.01,US,1632791314
Zadonsk,52.3904,38.9261,48.34,90,100,9.71,RU,1632791570
Sur,22.5667,59.5289,83.93,62,100,6.87,OM,1632791435
Makkah al Mukarramah,21.4267,39.8261,86.4,43,98,5.41,SA,1632791298
Bubaque,11.2833,-15.8333,82.71,77,100,12.3,GW,1632791414
Kutum,14.2,24.6667,77.4,51,100,3.44,SD,1632791266
Cabedelo,-6.9811,-34.8339,75.87,85,54,16.93,BR,1632791396
Vardø,70.3705,31.1107,48.67,89,93,16.87,NO,1632791277
Douglas,41.3,-96.167,80.58,61,1,1.01,US,1632791253
Pangnirtung,66.1451,-65.7125,32.83,66,100,1.36,CA,1632791457
Cabudare,10.0289,-69.0894,74.43,90,8,3.76,VE,1632791572
Buchanan,5.8808,-10.0467,75.16,86,100,5.01,LR,1632791572
Bozoum,6.3193,16.3799,67.15,96,100,1.61,CF,1632791572
Kattivākkam,13.2167,80.3167,80.69,69,100,15.46,IN,1632791573
Rocha,-34.4833,-54.3333,55.58,98,100,5.23,UY,1632791283
Vanimo,-2.6741,141.3028,85.19,66,99,7.05,PG,1632791573
East London,-33.0153,27.9116,64.63,76,100,17.76,ZA,1632791152
Brownsville,25.9018,-97.4975,86.11,75,1,5.01,US,1632791574
Praia da Vitória,38.7333,-27.0667,67.75,90,98,13.73,PT,1632791409
Ribeira Grande,38.5167,-28.7,70.23,81,97,11.72,PT,1632791277
Nivala,63.9167,24.9667,42.69,94,26,4.83,FI,1632791370
Ilulissat,69.2167,-51.1,23.02,36,0,8.05,GL,1632791367
Castle Bruce,15.4333,-61.2667,81.07,80,5,7.2,DM,1632791574
Dwārka,22.2394,68.9678,82.45,79,84,5.97,IN,1632791575
Flin Flon,54.7682,-101.865,56.16,69,0,6.17,CA,1632791296
Coolum Beach,-26.5333,153.1,70.11,57,100,8.55,AU,1632791575
Pangkalanbuun,-2.6833,111.6167,81.86,80,43,3.83,ID,1632791575
Henties Bay,-22.116,14.2845,56.86,89,100,6.49,NA,1632791576
Zhigansk,66.7697,123.3711,36.21,76,100,27.02,RU,1632791390
Evensk,61.95,159.2333,45.14,44,100,4.21,RU,1632791366
Jardim,-21.4803,-56.1381,82.6,33,53,2.75,BR,1632791159
San Cristobal,7.7669,-72.225,75.38,97,67,3.47,VE,1632791196
Apátfalva,46.1667,20.5833,61.23,70,77,3.78,HU,1632791577
Xinzhi,36.4989,111.7047,63.97,83,100,4.54,CN,1632791577
Saskylakh,71.9167,114.0833,26.46,89,19,8.7,RU,1632791314
Kavieng,-2.5744,150.7967,85.19,67,79,9.28,PG,1632791291
Hongjiang,27.11,109.9956,84.27,66,0,2.01,CN,1632791577
Haines Junction,60.7522,-137.5108,36.64,74,100,3.42,CA,1632791443
Huilong,31.8111,121.655,83.98,80,37,3.89,CN,1632791578
Rawson,-43.3002,-65.1023,54.14,39,31,4.43,AR,1632791308
Ventspils,57.3894,21.5606,42.73,100,0,4.61,LV,1632791361
Meiktila,20.8667,95.8667,76.15,86,97,2.98,MM,1632791288
Tasiilaq,65.6145,-37.6368,37.56,59,1,6.49,GL,1632791265
Ugoofaaru,5.6667,73.0,78.49,84,100,17.11,MV,1632791579
Jumla,29.2747,82.1838,58.41,88,18,2.93,NP,1632791579
Tual,-5.6667,132.75,81.05,82,60,13.96,ID,1632791579
Honiara,-9.4333,159.95,83.48,76,80,3.56,SB,1632791514
Deputatsky,69.3,139.9,24.64,66,94,6.02,RU,1632791317
Halden,59.1226,11.3871,56.61,92,100,12.28,NO,1632791580
Hofn,64.2539,-15.2082,41.76,68,100,20.22,IS,1632791580
Calvinia,-31.4707,19.776,43.9,85,55,5.28,ZA,1632791580
Tricase,39.9304,18.3553,70.83,74,78,6.04,IT,1632791581
Portland,45.5234,-122.6762,60.57,91,40,3.0,US,1632791037
Snyder,32.7179,-100.9176,80.94,39,1,6.91,US,1632791581
Tālbahat,25.05,78.4333,76.48,92,72,7.56,IN,1632791582
Jaisalmer,26.9147,70.9181,86.76,59,100,8.77,IN,1632791582
Bambous Virieux,-20.3428,57.7575,69.22,72,100,14.45,MU,1632791276
Ovalle,-30.5983,-71.2003,66.36,41,0,1.54,CL,1632791583
Korhogo,9.45,-5.6333,70.21,91,20,3.58,CI,1632791583
Vao,-22.6667,167.4833,68.14,71,25,9.69,NC,1632791321
Pacific Grove,36.6177,-121.9166,74.16,87,40,1.99,US,1632791394
Anadyr,64.75,177.4833,36.1,87,90,8.95,RU,1632791323
Lorengau,-2.0226,147.2712,85.5,65,73,8.19,PG,1632791433
Katsuura,35.1333,140.3,76.1,69,97,14.18,JP,1632791295
Arraial do Cabo,-22.9661,-42.0278,71.22,90,4,19.46,BR,1632791108
Banjar,-8.19,114.9675,82.26,68,42,5.44,ID,1632791584
San Juan,-31.5375,-68.5364,72.73,28,0,10.98,AR,1632791584
Flinders,-34.5833,150.8552,72.05,61,34,4.0,AU,1632791342
Tangzhai,34.4328,116.5911,70.59,90,100,5.88,CN,1632791585
Zonguldak,41.25,31.8333,48.47,90,0,3.42,TR,1632791585
Poum,-20.2333,164.0167,71.47,72,71,10.04,NC,1632791379
Sioux Lookout,50.1001,-91.917,50.81,62,56,4.9,CA,1632791586
Velizh,55.6056,31.1967,45.72,91,100,4.52,RU,1632791586
Changji,44.0167,87.3167,59.79,25,0,4.47,CN,1632791586
Chui,-33.6971,-53.4616,57.25,96,100,7.18,UY,1632791286
Esperance,-33.8667,121.9,58.84,79,86,16.75,AU,1632791587
Ajdabiya,30.7554,20.2263,70.9,73,1,7.7,LY,1632791587
Phonhong,18.5007,102.4166,78.62,88,35,2.44,LA,1632791587
Lüderitz,-26.6481,15.1594,55.47,79,2,19.19,NA,1632791288
Brae,60.3964,-1.353,51.71,82,0,23.31,GB,1632791588
Sora,41.7157,13.6141,69.04,87,86,3.47,IT,1632791588
San José del Guaviare,2.5729,-72.6459,75.69,86,52,2.1,CO,1632791589
Adrar,20.5022,-10.0711,89.02,11,0,1.86,MR,1632791589
Dauphin,51.1494,-100.0502,68.58,43,35,8.95,CA,1632791589
Lyubech,51.7026,30.6569,42.06,94,7,5.59,UA,1632791590
Hong Kong,22.2855,114.1577,86.38,79,4,1.01,HK,1632791103
Kruisfontein,-34.0033,24.7314,58.89,84,100,14.14,ZA,1632791338
Muroto-misakicho,33.2833,134.15,75.54,78,100,19.04,JP,1632791391
Barrow,71.2906,-156.7887,30.22,80,90,11.5,US,1632791263
Mahébourg,-20.4081,57.7,69.26,73,94,14.34,MU,1632791268
Marabu,4.4148,114.0089,81.1,81,34,3.65,MY,1632791591
Kanhangad,12.3081,75.1063,77.95,88,100,8.75,IN,1632791591
Klaksvík,62.2266,-6.589,45.52,86,100,11.27,FO,1632791328
Bredasdorp,-34.5322,20.0403,46.27,90,0,6.51,ZA,1632791245
Tuatapere,-46.1333,167.6833,56.82,56,92,5.46,NZ,1632791264
Elizabethton,36.3487,-82.2107,67.6,84,20,0.0,US,1632791313
Verbilki,56.5333,37.6,47.07,88,100,8.63,RU,1632791592
Port Blair,11.6667,92.75,80.47,82,93,4.16,IN,1632791264
Yatou,37.15,122.3833,71.33,92,98,15.77,CN,1632791593
Berehove,48.2056,22.6442,61.07,82,46,3.85,UA,1632791593
Dingle,10.9995,122.6711,83.16,77,100,3.49,PH,1632791283
Dunmore Town,25.5,-76.65,81.66,73,0,16.44,BS,1632791475
Paraíso,9.8383,-83.8656,67.06,85,100,2.3,CR,1632791594
Linxia Chengguanzhen,35.6003,103.2064,59.2,49,0,2.15,CN,1632791594
Ossora,59.2353,163.0719,45.25,60,100,2.8,RU,1632791594
Longyearbyen,78.2186,15.6401,33.64,93,75,5.75,SJ,1632791342
Perrysburg,41.557,-83.6272,73.0,72,1,0.0,US,1632791343
Loano,44.133,8.2513,71.29,88,25,4.0,IT,1632791595
Xining,36.6167,101.7667,53.85,59,0,1.77,CN,1632791595
São Francisco,-15.9486,-44.8644,79.12,31,53,4.94,BR,1632791595
Fort Nelson,58.8053,-122.7002,40.59,100,90,4.61,CA,1632791336
Waingapu,-9.6567,120.2641,85.15,60,84,8.34,ID,1632791596
Socorro,31.6546,-106.3033,79.81,34,20,11.5,US,1632791596
Kosh-Agach,50.0,88.6667,28.04,62,100,1.01,RU,1632791597
Airai,-8.9266,125.4092,77.05,33,16,3.11,TL,1632791281
Temple,31.0982,-97.3428,84.58,47,1,1.01,US,1632791597
Stuttgart,48.7823,9.177,63.03,89,40,12.66,DE,1632791598
Alofi,-19.0595,-169.9187,76.86,77,10,14.81,NU,1632791414
La Asuncion,11.0333,-63.8628,80.51,83,60,5.79,VE,1632791599
Maceió,-9.6658,-35.7353,80.04,78,75,8.05,BR,1632791527
Piaçabuçu,-10.4056,-36.4344,74.84,80,82,9.66,BR,1632791599
Shetpe,44.1667,52.1167,52.86,70,4,10.18,KZ,1632791600
Torbay,47.6666,-52.7314,60.28,92,0,5.99,CA,1632791199
Lebedyn,50.5852,34.4849,41.99,96,38,6.87,UA,1632791600
Novikovo,51.1537,37.8879,47.75,88,100,8.79,RU,1632791600
Grand Gaube,-20.0064,57.6608,69.39,75,100,5.01,MU,1632791282
Tibiri,13.5627,7.0485,83.25,40,5,6.44,NE,1632791601
Guilin,25.2819,110.2864,83.14,72,6,0.76,CN,1632791601
Chapais,49.7834,-74.8492,44.38,93,100,9.6,CA,1632791405
Yangi Marg`ilon,40.4272,71.7189,59.72,51,0,2.3,UZ,1632791330
Alta Floresta,-9.8756,-56.0861,69.8,97,92,3.36,BR,1632791365
Fairbanks,64.8378,-147.7164,40.96,69,75,0.0,US,1632791104
Belmonte,-15.8631,-38.8828,75.7,86,31,7.05,BR,1632791602
Río Cuarto,-33.1307,-64.3499,46.83,77,25,10.09,AR,1632791603
Charter Township of Clinton,42.587,-82.9199,73.47,79,75,1.01,US,1632791603
Leshukonskoye,64.8989,45.7622,41.13,96,100,4.23,RU,1632791603
Solnechnyy,50.7214,136.6319,64.74,60,8,3.56,RU,1632791604
Kaitangata,-46.2817,169.8464,59.94,39,73,1.77,NZ,1632791274
Saint-Philippe,-21.3585,55.7679,69.35,74,27,13.38,RE,1632791271
Bandarbeyla,9.4942,50.8122,76.96,87,76,17.52,SO,1632791380
Thompson,55.7435,-97.8558,50.32,66,84,6.73,CA,1632791278
Kollegāl,12.15,77.1167,70.99,78,100,8.77,IN,1632791605
Lázaro Cárdenas,17.9583,-102.2,80.73,78,100,2.39,MX,1632791605
Khatanga,71.9667,102.5,27.79,74,98,7.65,RU,1632791290
Pratāpgarh,24.0333,74.7833,74.23,93,93,8.37,IN,1632791606
Bukachacha,52.9833,116.9167,40.21,57,88,0.94,RU,1632791606
Lucapa,-8.4192,20.7447,64.85,94,100,2.44,AO,1632791607
Baharly,38.4362,57.4316,60.69,59,0,4.43,TM,1632791607
Ichinohe,40.2069,141.3017,68.16,59,100,5.32,JP,1632791607
Simões,-7.5989,-40.8178,80.11,43,38,10.0,BR,1632791472
Korsakov,46.6328,142.7813,64.24,83,100,13.96,RU,1632791608
Azamgarh,26.06,83.1861,79.79,85,4,5.99,IN,1632791608
Balaipungut,1.05,101.2833,79.21,90,94,2.06,ID,1632791381
Bagdarin,54.4333,113.6,36.28,54,100,4.94,RU,1632791608
Narsaq,60.9167,-46.05,30.54,44,0,2.59,GL,1632791285
Goderich,43.7501,-81.7165,61.92,84,100,14.81,CA,1632791609
Labuhan,-6.8844,112.2051,81.95,66,79,8.3,ID,1632791609
Bilāspur,22.0833,82.15,75.24,93,61,8.95,IN,1632791610
Marhaura,25.9667,84.8667,76.93,84,22,5.23,IN,1632791610
Arnprior,45.4334,-76.3494,58.78,93,40,8.21,CA,1632791610
Changping,40.2186,116.2197,67.51,87,100,4.0,CN,1632791611
Bahía Solano,6.2262,-77.4044,78.89,89,100,5.1,CO,1632791611
Ponta do Sol,32.6667,-17.1,72.23,68,50,3.62,PT,1632791438
São João da Barra,-21.6403,-41.0511,72.68,88,100,15.28,BR,1632791392
Kisangani,0.5167,25.2,68.41,98,86,1.01,CD,1632791612
Campbellton,48.0075,-66.6727,53.85,91,96,4.52,CA,1632791612
Abhar,36.1468,49.218,54.84,53,0,3.53,IR,1632791612
San Mateo del Mar,16.2,-95.0,83.91,74,84,2.71,MX,1632791613
Najrān,17.4924,44.1277,71.8,22,5,4.0,SA,1632791424
Alyangula,-13.8483,136.4192,83.07,68,37,9.17,AU,1632791613
Quixadá,-4.9714,-39.0153,78.66,73,6,7.18,BR,1632791613
Coquimbo,-29.9533,-71.3436,56.93,88,0,3.44,CL,1632791407
Bull Savanna,17.8868,-77.5902,78.67,78,28,0.6,JM,1632791614
Hithadhoo,-0.6,73.0833,82.8,74,100,16.02,MV,1632791390
Am Timan,11.0297,20.2827,75.85,81,100,1.1,TD,1632791614
Chibombo,-14.6569,28.0706,69.82,43,100,4.94,ZM,1632791615
São José de Ribamar,-2.5619,-44.0542,80.98,80,2,12.39,BR,1632791615
Rio Verde de Mato Grosso,-18.9181,-54.8442,84.24,37,18,4.61,BR,1632791615
Vysokogornyy,50.1167,139.15,54.09,97,100,3.02,RU,1632791616
Imbituba,-28.24,-48.6703,70.83,93,4,11.7,BR,1632791616
Usinsk,65.9939,57.5281,35.98,93,100,13.4,RU,1632791616
College,64.8569,-147.8028,40.95,69,75,0.0,US,1632791329
Saint-Augustin,51.226,-58.6502,50.88,86,0,14.72,CA,1632791617
Saravan,39.7196,45.6483,48.85,48,0,6.42,AM,1632791617
Chunskiy,56.0815,99.6342,33.4,97,100,7.09,RU,1632791618
Psebay,44.1234,40.8107,47.03,93,50,3.29,RU,1632791618
Santa Cruz de la Sierra,-17.8,-63.1667,80.06,65,0,5.75,BO,1632791357
Menongue,-14.6585,17.691,63.82,32,63,4.65,AO,1632791618
Murgab,37.4966,61.9714,59.2,47,0,7.87,TM,1632791619
Souillac,-20.5167,57.5167,70.36,77,75,13.49,MU,1632791374
Olafsvik,64.8945,-23.7142,38.73,82,86,15.46,IS,1632791310
Pierre,44.3683,-100.351,82.85,43,1,1.99,US,1632791619
Cayenne,4.9333,-52.3333,83.08,79,20,5.01,GF,1632791310
Alamosa,37.4695,-105.87,53.11,87,75,10.36,US,1632791362
Ridgecrest,35.6225,-117.6709,85.86,23,90,4.0,US,1632791582
Benavente,42.0025,-5.6783,61.88,71,49,5.37,ES,1632791620
Townsville,-19.25,146.8,79.68,61,20,18.41,AU,1632791620
Lata,40.1629,-8.3327,66.04,95,100,2.89,PT,1632791280
Ndélé,8.4109,20.6473,69.49,98,100,5.08,CF,1632791621
Naze,28.3667,129.4833,79.43,78,5,13.4,JP,1632791259
Hasaki,35.7333,140.8333,75.29,59,66,14.34,JP,1632791458
Vestmanna,62.1564,-7.1664,43.72,100,90,8.05,FO,1632791621
Bandar-e Lengeh,26.5579,54.8807,84.96,63,6,5.55,IR,1632791622
Whyalla,-33.0333,137.5833,73.29,40,40,10.36,AU,1632791622
Hailey,43.5196,-114.3153,66.9,21,1,0.0,US,1632791622
Fortuna,40.5982,-124.1573,60.93,73,90,0.0,US,1632791406
Ahtopol,42.1,27.95,61.27,78,67,8.84,BG,1632791623
Noumea,-22.2763,166.4572,78.78,70,38,13.65,NC,1632791623
Cape Coast,5.1053,-1.2466,76.59,88,94,7.99,GH,1632791623
Chokurdakh,70.6333,147.9167,24.73,82,98,17.56,RU,1632791320
Nocupétaro,19.05,-101.15,73.22,90,100,2.1,MX,1632791624
Songjianghe,42.1859,127.479,63.73,75,27,3.04,CN,1632791624
Biggar,55.6167,-3.5167,48.9,92,55,10.31,GB,1632791624
Hanko,59.8333,22.95,50.85,84,6,14.58,FI,1632791625
Yoichi,43.2039,140.7703,65.61,58,100,3.06,JP,1632791625
Rognan,67.0953,15.3878,60.94,91,35,12.28,NO,1632791626
Iqaluit,63.7506,-68.5145,31.69,77,100,5.99,CA,1632791279
Inhambane,-23.865,35.3833,70.81,86,100,8.48,MZ,1632791399
Kasempa,-13.4584,25.8338,67.1,49,26,2.01,ZM,1632791627
Semeykino,48.3264,39.5337,45.25,89,64,4.25,UA,1632791627
Kupang,-10.1667,123.5833,86.58,62,20,8.05,ID,1632791627
São José da Coroa Grande,-8.8978,-35.1478,75.43,84,36,12.95,BR,1632791628
Sept-Îles,50.2001,-66.3821,54.05,91,100,1.99,CA,1632791400
Yasothon,15.75,104.1333,79.86,83,8,3.56,TH,1632791628
Ambulu,-8.345,113.6058,80.22,68,16,4.79,ID,1632791629
Ambilobe,-13.2,49.05,74.25,63,99,5.21,MG,1632791629
Ketchikan,55.3422,-131.6461,51.78,97,100,3.29,US,1632791457
Padang,-0.9492,100.3543,78.85,79,56,2.37,ID,1632791411
Raton,36.9034,-104.4391,68.34,35,1,6.91,US,1632791437
Snezhnogorsk,69.1933,33.2531,35.38,89,86,8.55,RU,1632791630
Port Hedland,-20.3167,118.5667,80.65,17,100,14.97,AU,1632791413
Yerbogachën,61.2767,108.0108,35.08,82,100,12.39,RU,1632791630
Saurimo,-9.6608,20.3916,64.35,88,100,3.09,AO,1632791363
Dunedin,-45.8742,170.5036,52.97,50,57,5.41,NZ,1632791420
Marquard,-28.6645,27.4305,62.89,33,100,5.88,ZA,1632791631
Ancud,-41.8697,-73.8203,45.93,87,99,3.44,CL,1632791322
Marsh Harbour,26.5412,-77.0636,80.24,69,19,15.26,BS,1632791631
Nālūt,30.3333,10.85,76.32,22,0,8.63,LY,1632791328
Gizo Government Station,-8.103,156.8419,82.69,74,96,6.42,SB,1632791260
Pirovskoye,57.6267,92.2658,33.46,88,100,2.84,RU,1632791632
Hay River,60.8156,-115.7999,47.32,72,100,14.47,CA,1632791337
San Isidro,-12.1167,-77.05,61.25,92,0,1.01,PE,1632791632
Corinth,37.9407,22.9573,74.75,60,89,1.88,GR,1632791633
Ewing,40.2698,-74.7999,72.59,59,1,1.99,US,1632791633
Valdosta,30.8327,-83.2785,72.99,83,1,0.0,US,1632791369
Hailar,49.2,119.7,55.81,53,99,5.19,CN,1632791633
Ust-Kuyga,70.0167,135.6,25.68,98,50,4.88,RU,1632791281
Bridlington,54.0831,-0.1919,50.9,81,5,15.77,GB,1632791634
Sumenep,-7.0167,113.8667,83.48,64,22,8.01,ID,1632791635
Salihorsk,52.7876,27.5415,46.4,85,92,5.73,BY,1632791635
Guerrero Negro,27.9769,-114.0611,69.75,70,0,16.06,MX,1632791286
Sergeevka,53.88,67.4158,36.93,96,100,21.39,KZ,1632791424
Verkhnevilyuysk,63.4453,120.3167,36.39,74,72,10.02,RU,1632791636
Sabzawār,36.2126,57.6819,66.51,43,0,5.79,IR,1632791636
Jinchang,38.4953,102.1739,66.25,20,0,3.44,CN,1632791636
Port Lincoln,-34.7333,135.8667,68.07,46,55,3.91,AU,1632791429
Bousso,10.4795,16.7117,71.98,90,72,4.5,TD,1632791637
Bardsīr,29.9227,56.5743,62.46,17,0,4.14,IR,1632791637
Gáldar,28.147,-15.6502,72.7,80,59,16.04,ES,1632791637
Norman Wells,65.282,-126.8329,35.29,98,100,2.48,CA,1632791289
Kungurtug,50.5994,97.5228,20.19,79,98,1.83,RU,1632791638
Axum,14.1245,38.7244,57.54,77,54,2.35,ET,1632791638
Te Anau,-45.4167,167.7167,52.66,59,70,5.59,NZ,1632791278
Imeni Poliny Osipenko,52.4201,136.4853,62.1,56,0,6.51,RU,1632791639
Cidreira,-30.1811,-50.2056,66.38,92,1,14.27,BR,1632791252
Tautira,-17.7333,-149.15,84.22,75,26,14.2,PF,1632791639
Madimba,-10.4,40.3333,71.69,86,2,4.18,TZ,1632791639
Øksfjord,70.2396,22.3479,58.12,76,99,10.71,NO,1632791640
Shchebetovka,44.9333,35.15,52.9,62,3,6.62,UA,1632791640
Archidona,37.0965,-4.3887,62.58,42,89,2.44,ES,1632791640
Port Shepstone,-30.7414,30.455,68.86,76,79,19.82,ZA,1632791641
Mehamn,71.0357,27.8492,52.47,75,100,10.27,NO,1632791343
Collie,-33.3667,116.15,55.98,67,51,6.8,AU,1632791641
Kudahuvadhoo,2.6708,72.8944,82.49,77,100,16.26,MV,1632791642
Ostrovnoy,68.0531,39.5131,46.02,88,100,4.97,RU,1632791387
Las Vegas,36.175,-115.1372,91.62,34,1,14.97,US,1632791526
Razgrad,43.5333,26.5167,59.88,83,100,8.75,BG,1632791643
Oskemen,49.9565,82.6119,37.36,81,75,2.24,KZ,1632791643
Darnah,32.767,22.6367,73.67,74,6,17.2,LY,1632791643
Ahipara,-35.1667,173.1667,56.68,64,12,13.42,NZ,1632791246
Barra de Tecoanapa,16.5167,-98.75,80.67,77,83,4.14,MX,1632791644
Trairi,-3.2778,-39.2689,79.41,83,57,11.59,BR,1632791516
Pirenópolis,-15.8525,-48.9592,80.64,32,98,4.0,BR,1632791644
Khovu-Aksy,51.1333,93.6,25.84,47,100,3.04,RU,1632791645
Ak-Dovurak,51.1833,90.6,30.96,43,100,1.01,RU,1632791645
Geraldton,-28.7667,114.6,63.01,82,8,4.61,AU,1632791268
Pisco,-13.7,-76.2167,62.65,77,0,12.66,PE,1632791279
Port Moresby,-9.4431,147.1797,84.76,68,44,11.97,PG,1632791253
Zarautz,43.2844,-2.1699,64.81,88,100,2.84,ES,1632791646
Port Pirie,-33.1833,138.0167,73.49,30,100,14.9,AU,1632791646
Shanghai,31.2222,121.4581,82.87,77,0,2.24,CN,1632791600
Salalah,17.0151,54.0924,78.89,94,20,4.61,OM,1632791247
Cockburn Town,21.4612,-71.1419,83.14,72,11,8.97,TC,1632791647
Verkhnyaya Inta,65.9811,60.3094,37.13,74,100,11.7,RU,1632791647
Kerrville,30.0474,-99.1403,83.55,53,1,6.91,US,1632791647
Snåase,64.2457,12.3778,51.37,69,10,10.58,NO,1632791648
Hervey Bay,-25.2986,152.8535,73.04,58,100,12.66,AU,1632791436
Bukama,-9.2,25.85,71.44,85,100,5.5,CD,1632791648
Aykhal,66.0,111.5,31.24,90,100,17.27,RU,1632791428
Sokolo,14.7328,-6.1219,83.7,42,0,7.78,ML,1632791648
Emba,48.8264,58.1442,50.41,66,100,12.33,KZ,1632791400
Korla,41.7597,86.1469,66.74,24,0,5.06,CN,1632791443
Srednekolymsk,67.45,153.6833,27.81,55,47,17.2,RU,1632791398
Praia,14.9215,-23.5087,78.8,82,6,11.21,CV,1632791649
Husavik,66.0449,-17.3389,37.92,77,100,5.37,IS,1632791384
Aleksandrov Gay,50.147,48.5704,46.04,79,36,9.28,RU,1632791650
Bahía Blanca,-38.7196,-62.2724,47.73,59,0,7.72,AR,1632791650
Mabay,6.0577,124.4666,85.3,64,100,2.64,PH,1632791650
Bloomington,44.8408,-93.2983,68.25,63,1,3.44,US,1632791651
Isangel,-19.55,169.2667,77.72,60,13,10.04,VU,1632791345
Los Llanos de Aridane,28.6585,-17.9182,71.35,83,90,14.97,ES,1632791651
Buraidah,26.326,43.975,73.31,12,74,4.68,SA,1632791357
Vestmannaeyjar,63.4427,-20.2734,37.65,75,38,23.47,IS,1632791652
Coos Bay,43.3665,-124.2179,57.92,97,40,10.36,US,1632791652
Harbin,45.75,126.65,64.69,75,13,12.39,CN,1632791652
Gobabis,-22.45,18.9667,65.53,19,52,12.37,NA,1632791653
Lincoln,40.8,-96.667,83.55,50,1,1.99,US,1632791563
Yumen,40.2833,97.2,64.63,18,0,4.32,CN,1632791275
Nouna,12.7333,-3.8667,79.03,59,1,5.84,BF,1632791653
Nauta,-4.5061,-73.5757,78.19,65,39,1.03,PE,1632791654
Poya,-21.35,165.15,73.27,61,63,9.55,NC,1632791654
Mackay,-21.15,149.2,80.69,64,57,11.56,AU,1632791400
Seybaplaya,19.65,-90.6667,83.66,76,11,12.93,MX,1632791655
Gravelbourg,49.8834,-106.5512,74.86,21,14,8.7,CA,1632791655
Kemin,42.7846,75.6892,52.45,63,21,1.21,KG,1632791655
Totolapan,18.5167,-96.1833,82.33,90,68,5.61,MX,1632791655
Villa Rica,33.7321,-84.9191,69.55,95,0,2.06,US,1632791656
Muros,42.7762,-9.0603,61.84,90,100,6.08,ES,1632791656
Adolfo López Mateos,28.4667,-107.3,59.94,58,8,9.75,MX,1632791656
Banda Aceh,5.5577,95.3222,79.72,84,100,9.8,ID,1632791657
Casper,42.8666,-106.3131,72.72,17,1,1.01,US,1632791649
Laguna,38.421,-121.4238,79.45,63,90,8.01,US,1632791411
San Vicente,-26.6167,-54.1333,70.9,48,45,0.47,AR,1632791657
Omboué,-1.5746,9.2618,76.32,84,100,4.29,GA,1632791658
Giyani,-23.3025,30.7187,69.84,40,0,2.39,ZA,1632791658
Auki,-8.7676,160.7034,85.89,64,79,2.93,SB,1632791386
Daru,-9.0763,143.2092,81.23,75,85,14.54,PG,1632791658
Namatanai,-3.6667,152.4333,85.46,67,78,5.06,PG,1632791295
Codrington,-38.2667,141.9667,65.37,59,97,5.03,AU,1632791269
Medicine Hat,50.0501,-110.6683,75.22,34,100,1.99,CA,1632791659
Novosheshminsk,55.0651,51.2338,36.32,79,11,14.12,RU,1632791659
Samarai,-10.6167,150.6667,80.22,81,71,12.21,PG,1632791436
Tenosique,17.4833,-91.4333,78.37,82,93,1.9,MX,1632791660
Houma,29.5958,-90.7195,80.01,91,100,5.93,US,1632791382
Bitung,1.4451,125.1824,86.85,70,24,9.13,ID,1632791391
Carhuamayo,-10.9167,-76.0333,35.76,94,29,2.68,PE,1632791660
Jinan,36.6683,116.9972,66.6,95,100,3.56,CN,1632791660
Tshikapa,-6.4167,20.8,69.01,94,100,0.85,CD,1632791398
Krasnosel'kup,65.7,82.4667,30.67,81,76,8.39,RU,1632791661
Payson,40.0444,-111.7321,80.35,36,1,3.44,US,1632791661
Istmina,5.1605,-76.684,74.3,97,100,2.28,CO,1632791662
Kholmogory,64.2229,41.656,32.11,95,48,2.73,RU,1632791662
Lubango,-14.9172,13.4925,59.43,65,64,3.22,AO,1632791662
Brandon,27.9378,-82.2859,82.31,76,1,1.01,US,1632791413
Santa Fe,-31.6333,-60.7,73.02,66,10,1.99,AR,1632791397
Los Barrios,36.1848,-5.4921,64.31,72,86,2.46,ES,1632791663
Mīzan Teferī,6.9833,35.5833,59.61,93,100,3.11,ET,1632791663
Galle,6.0367,80.217,80.04,83,97,18.68,LK,1632791664
Sinnamary,5.3833,-52.95,79.95,83,99,10.47,GF,1632791393
Zaraza,9.3503,-65.3245,80.22,68,75,3.11,VE,1632791664
Salinópolis,-0.6136,-47.3561,78.91,83,0,9.19,BR,1632791664
Lander,42.833,-108.7307,76.01,19,1,5.75,US,1632791665
Maniitsoq,65.4167,-52.9,34.45,43,0,7.52,GL,1632791414
Avera,33.194,-82.5271,71.71,61,0,5.39,US,1632791332
Sola,-13.8833,167.55,79.3,80,56,18.72,VU,1632791396
Saint-Junien,45.8833,0.9,53.85,97,86,1.79,FR,1632791666
Kaura Namoda,12.5898,6.5779,76.71,67,13,7.18,NG,1632791666
Christchurch,-43.5333,172.6333,57.99,53,0,5.75,NZ,1632791405
Kirovsk,48.6375,38.6428,45.77,86,51,3.69,UA,1632791666
Kulhudhuffushi,6.6221,73.07,80.83,76,100,19.93,MV,1632791667
Gambo,4.6482,22.2633,68.86,99,100,0.4,CF,1632791667
Feicheng,35.2606,117.9675,72.21,77,86,3.96,CN,1632791667
Mugur-Aksy,50.35,90.5,22.23,78,100,4.74,RU,1632791668
Novoagansk,61.9449,76.6625,31.53,93,30,6.96,RU,1632791668
Comodoro Rivadavia,-45.8667,-67.5,51.66,35,0,16.11,AR,1632791418
Arkhangelsk,64.5401,40.5433,32.11,100,20,0.0,RU,1632791669
Yakeshi,49.2833,120.7333,52.29,61,100,4.45,CN,1632791669
Bay Roberts,47.5999,-53.2648,59.32,93,14,5.01,CA,1632791669
Nikel,69.4128,30.222,44.78,87,83,10.36,RU,1632791670
Batagay-Alyta,67.8006,130.4114,30.52,82,94,3.85,RU,1632791670
Kahului,20.8947,-156.47,85.96,74,40,23.02,US,1632791253
Birjand,32.8663,59.2211,65.61,25,0,4.05,IR,1632791670
San Luis,-33.295,-66.3356,54.18,72,0,20.11,AR,1632791272
Jiuquan,39.7432,98.5174,65.03,18,0,4.68,CN,1632791671
Palu,-0.8917,119.8707,85.53,72,100,2.1,ID,1632791671
Mount Gambier,-37.8333,140.7667,66.97,46,95,8.3,AU,1632791348
Tofield,53.3668,-112.6686,69.66,35,0,3.89,CA,1632791672
Turukhansk,65.8167,87.9833,32.68,73,97,7.05,RU,1632791672
Dongsheng,39.8161,109.9776,60.73,54,0,17.67,CN,1632791672
Westport,41.1415,-73.3579,74.05,69,1,1.01,US,1632791673
Saint Lawrence,36.0553,14.204,76.86,85,97,1.01,MT,1632791673
Calamar,10.2511,-74.9146,84.15,87,37,7.47,CO,1632791674
Sorong,-0.8833,131.25,82.53,76,100,4.81,ID,1632791674
Griffith,41.5284,-87.4237,70.27,87,1,4.0,US,1632791674
Wajir,1.7471,40.0573,73.67,69,98,16.15,KE,1632791675
Morgan City,29.6994,-91.2068,80.01,94,1,5.75,US,1632791675
Kolpashevo,58.3131,82.9089,31.05,95,33,4.76,RU,1632791675
Denpasar,-8.65,115.2167,82.06,74,20,12.66,ID,1632791676
Wakefield,53.6809,-1.499,52.63,75,61,10.56,GB,1632791676
Bariloche,-41.1456,-71.3082,38.95,56,0,2.3,AR,1632791426
Bulancak,40.9372,38.2291,60.62,88,75,0.0,TR,1632791677
Pundaguitan,6.3711,126.1689,84.45,71,33,6.35,PH,1632791677
Shwebo,22.5667,95.7,77.76,89,100,3.94,MM,1632791677
Kenai,60.5544,-151.2583,49.03,44,1,4.61,US,1632791246
Port Macquarie,-31.4333,152.9167,74.37,51,51,13.78,AU,1632791678
Boundiali,9.5217,-6.4869,71.13,90,22,2.19,CI,1632791678
Bathsheba,13.2167,-59.5167,83.01,74,40,8.05,BB,1632791678
Candolim,15.5181,73.7626,75.07,91,100,5.21,IN,1632791679
Vuktyl,63.8567,57.3094,35.87,74,100,4.68,RU,1632791679
Boshnyakovo,49.6333,142.1667,57.4,91,100,13.6,RU,1632791679
Moose Factory,51.2585,-80.6094,46.15,84,100,8.12,CA,1632791345
Gamba,-2.65,10.0,76.08,85,100,3.53,GA,1632791680
Grindavik,63.8424,-22.4338,37.87,75,75,23.02,IS,1632791324
Angoche,-16.2325,39.9086,71.6,87,8,6.96,MZ,1632791680
Beşikdüzü,41.052,39.2284,64.29,82,60,5.01,TR,1632791681
Astoria,46.1879,-123.8313,58.87,77,1,1.01,US,1632791681
Kjøllefjord,70.9457,27.3465,53.51,72,100,12.8,NO,1632791681
Statesville,35.7826,-80.8873,70.23,54,1,0.0,US,1632791682
Mount Darwin,-16.7725,31.5838,62.62,58,23,2.66,ZW,1632791682
Grenå,56.4158,10.8783,57.42,97,100,14.16,DK,1632791682
Mazagão,-0.115,-51.2894,84.25,74,1,7.4,BR,1632791683
Mount Isa,-20.7333,139.5,92.97,10,96,12.66,AU,1632791334
Tekkali,18.6167,84.2333,78.57,89,96,3.87,IN,1632791683
Opuwo,-18.0607,13.84,63.16,43,5,5.21,NA,1632791437
Saryg-Sep,51.5,95.6,23.58,77,100,3.13,RU,1632791684
Luena,-11.7833,19.9167,59.04,81,67,3.31,AO,1632791684
Umluj,25.0213,37.2685,80.76,69,1,11.83,SA,1632791147
Mogadishu,2.0371,45.3438,77.07,83,71,17.76,SO,1632791559
Fomboni,-12.28,43.7425,76.53,73,1,0.94,KM,1632791685
Safford,32.834,-109.7076,76.12,50,90,5.75,US,1632791685
Byron Bay,-28.65,153.6167,69.91,48,100,7.27,AU,1632791420
Kalevala,65.2,31.1667,43.45,90,20,3.87,RU,1632791685
Mossamedes,-15.1961,12.1522,62.67,88,39,1.05,AO,1632791445
Melfort,52.8667,-104.6177,66.96,35,7,3.51,CA,1632791686
Vallenar,-28.5708,-70.7581,69.94,34,0,0.83,CL,1632791676
Camabatela,-8.1881,15.375,62.26,90,100,1.21,AO,1632791686
Nanortalik,60.1432,-45.2371,34.48,68,0,2.19,GL,1632791261
Concordia,-31.393,-58.0209,66.11,76,1,7.4,AR,1632791382
Alice Springs,-23.7,133.8833,83.75,15,75,9.22,AU,1632791367
Tessalit,20.1986,1.0114,84.78,15,0,7.67,ML,1632791333
Coxim,-18.5067,-54.76,87.17,36,88,5.66,BR,1632791687
Agogo,6.8,-1.0819,68.54,99,100,2.48,GH,1632791688
Kaeo,-35.1,173.7833,59.32,60,7,10.85,NZ,1632791344
Faya,18.3851,42.4509,59.52,25,6,4.0,SA,1632791688
Puerto del Rosario,28.5004,-13.8627,73.15,83,1,19.57,ES,1632791352
Pineville,31.3224,-92.4343,78.87,82,1,8.05,US,1632791689
Tsimlyansk,47.6461,42.1019,50.2,81,99,7.31,RU,1632791689
Atasū,48.6814,71.6433,50.43,54,81,8.57,KZ,1632791689
Fare,-16.7,-151.0167,79.12,76,9,16.35,PF,1632791298
City of San Pedro,14.35,121.0167,88.11,70,62,2.75,PH,1632791690
Svetlaya,46.5389,138.3297,61.7,84,100,8.1,RU,1632791690
Mīnāb,27.1467,57.0801,83.89,73,6,1.23,IR,1632791690
Nioro,13.35,-15.75,74.88,86,14,15.01,GM,1632791347
Mahibadhoo,3.7833,72.9667,81.36,80,100,17.29,MV,1632791691
Mayo,38.8876,-76.5119,73.98,68,1,1.99,US,1632791691
La Paz,-16.5,-68.15,49.98,71,20,5.75,BO,1632791692
Igarka,67.4667,86.5833,30.99,67,48,2.19,RU,1632791692
Thinadhoo,0.5333,72.9333,83.07,72,84,14.83,MV,1632791296
Puksoozero,62.5903,40.6066,41.58,92,100,1.57,RU,1632791692
Ayan,56.45,138.1667,49.21,65,66,5.41,RU,1632791693
Pilar,-9.5972,-35.9567,78.73,92,75,3.83,BR,1632791693
Egvekinot,66.3167,-179.1667,27.07,81,100,2.95,RU,1632791410
Panabá,21.2833,-88.2667,76.32,90,1,7.85,MX,1632791693
Canavieiras,-15.675,-38.9472,71.87,88,6,4.74,BR,1632791694
North Bend,43.4065,-124.2243,57.85,97,40,10.36,US,1632791258
Uruaçu,-14.5247,-49.1408,85.01,32,100,2.48,BR,1632791694
